timestamp,accel_x,accel_y,accel_z,gyro_x,gyro_y,gyro_z,quat_w,quat_x,quat_y,quat_z,roll,pitch,yaw,att_sp_roll,att_sp_pitch,att_sp_yaw,rate_sp_roll,rate_sp_pitch,rate_sp_yaw,att_cmd_roll,att_cmd_pitch,att_cmd_yaw,rate_cmd_roll,rate_cmd_pitch,rate_cmd_yaw,altitude,climb_rate,flight_state,flight_mode
194286,-2.447,0.044,1.438,29.683,-1.187,-11.167,-0.1053,-0.2084,-0.0382,0.9716,-1.903,24.398,11.959,0.176,-1.408,2.639,0.004,-0.031,0.012,12.312,-60.000,2.639,-0.540,-0.331,0.252,2.06,-1.10,1,0
194333,-0.390,-0.025,0.521,-36.021,8.643,-25.743,-0.0943,-0.0614,-0.0165,0.9935,-1.229,7.184,10.770,0.176,-1.408,-12.845,0.004,-0.031,0.012,6.526,-29.580,0.704,0.476,-0.589,0.879,2.85,0.37,2,0
194358,-0.393,-0.011,0.624,-41.314,-5.394,-22.695,-0.0877,-0.0642,-0.0296,0.9936,-2.756,7.631,9.902,0.176,-1.408,-5.630,0.004,-0.031,0.012,15.395,-31.470,-5.630,0.628,-0.358,0.451,2.86,0.22,2,0
194372,-0.392,-0.009,0.654,-35.613,-11.624,-22.329,-0.0857,-0.0640,-0.0337,0.9937,-3.242,7.645,9.636,0.176,-1.408,0.000,0.004,-0.031,0.012,17.786,-31.602,-2.815,0.677,-0.179,0.506,2.85,0.22,2,0
194387,-0.392,-0.009,0.654,-35.613,-11.624,-22.329,-0.0857,-0.0640,-0.0337,0.9937,-3.242,7.645,9.636,0.176,-1.408,0.000,0.004,-0.031,0.012,17.786,-31.602,-2.815,0.677,-0.179,0.506,2.85,0.22,2,0
194421,-0.393,0.000,0.734,-21.570,-40.103,-19.934,-0.0784,-0.0558,-0.0451,0.9943,-4.672,6.778,8.739,0.088,0.704,2.111,0.004,-0.031,0.012,26.574,-25.756,2.111,0.787,0.274,0.403,2.82,-0.63,2,0
194452,-0.396,0.002,0.752,-10.818,-45.803,-18.781,-0.0751,-0.0486,-0.0477,0.9948,-5.051,5.963,8.367,-1.408,8.842,2.111,0.004,-0.031,0.012,25.511,-5.588,2.111,0.654,0.430,0.530,2.81,-0.23,2,0
194487,-0.412,0.004,0.727,13.687,-35.781,-16.655,-0.0692,-0.0362,-0.0458,0.9959,-4.958,4.495,7.760,0.000,10.073,2.111,0.004,-0.031,0.012,27.642,19.279,2.111,0.061,0.635,0.512,2.79,-0.29,2,0
194507,-0.417,0.008,0.718,19.422,-26.457,-16.274,-0.0671,-0.0335,-0.0429,0.9963,-4.658,4.163,7.540,0.000,9.018,2.111,0.004,-0.031,0.012,26.497,18.562,2.111,-0.098,0.391,0.467,2.77,-1.03,2,0
194538,-0.462,0.017,0.726,29.379,-3.242,-16.030,-0.0630,-0.0331,-0.0362,0.9968,-3.905,4.045,7.093,-0.044,5.674,2.111,0.004,-0.031,0.012,22.761,13.645,2.111,-0.373,-0.033,0.476,2.74,-0.93,2,0
194559,-0.479,0.019,0.717,29.046,13.327,-15.056,-0.0593,-0.0373,-0.0294,0.9971,-3.118,4.469,6.688,0.000,-1.452,2.111,0.004,-0.031,0.012,17.743,-20.344,2.111,-0.487,-0.210,0.448,2.72,-0.93,2,0
194581,-0.547,0.020,0.879,25.402,25.017,-13.734,-0.0564,-0.0436,-0.0243,0.9972,-2.511,5.150,6.357,0.000,-1.408,2.111,0.004,-0.031,0.012,14.912,-22.156,2.111,-0.590,-0.367,0.359,2.69,-1.31,2,0
194599,-0.553,0.013,1.127,20.387,27.573,-12.831,-0.0541,-0.0498,-0.0210,0.9971,-2.104,5.825,6.101,0.000,-1.408,2.111,0.004,-0.031,0.012,12.211,-24.707,2.111,-0.555,-0.473,0.300,2.67,-1.24,2,0
194613,-0.599,0.028,1.283,13.543,26.893,-13.529,-0.0523,-0.0546,-0.0191,0.9970,-1.866,6.361,5.904,0.088,-1.408,2.111,0.004,-0.031,0.012,11.596,-26.048,2.111,-0.384,-0.542,0.327,2.65,-1.24,2,0
194630,-0.603,0.023,1.504,8.799,21.376,-12.816,-0.0503,-0.0595,-0.0177,0.9968,-1.689,6.920,5.681,0.088,-1.408,2.111,0.004,-0.031,0.012,10.127,-28.611,2.111,-0.201,-0.603,0.371,2.62,-1.26,2,0
194646,-0.646,0.046,1.652,2.046,9.082,-12.264,-0.0484,-0.0636,-0.0167,0.9967,-1.565,7.377,5.455,0.088,-1.408,2.111,0.004,-0.031,0.012,9.259,-30.525,2.111,0.019,-0.396,0.326,2.59,-1.89,2,0
194670,-0.645,0.045,1.837,-9.942,-8.127,-11.588,-0.0460,-0.0659,-0.0176,0.9966,-1.683,7.638,5.176,0.176,-1.408,2.111,0.004,-0.031,0.012,10.101,-31.484,2.111,0.230,-0.095,0.294,2.55,-1.80,2,0
194692,-0.699,0.026,2.006,-26.201,-26.107,-12.357,-0.0441,-0.0644,-0.0207,0.9967,-2.057,7.479,4.928,0.088,4.927,2.111,0.004,-0.031,0.012,11.399,-18.477,2.111,0.383,0.123,0.397,2.50,-1.80,2,0
194726,-0.719,0.047,2.120,-28.551,-37.852,-12.115,-0.0425,-0.0603,-0.0251,0.9970,-2.594,7.024,4.717,-7.170,16.848,2.111,0.004,-0.031,0.012,-24.199,34.880,2.111,0.457,0.325,0.470,2.43,-2.33,2,0
194756,-0.697,0.018,2.122,-29.186,-42.465,-11.679,-0.0411,-0.0554,-0.0289,0.9972,-3.061,6.476,4.546,-9.238,22.346,2.111,0.004,-0.031,0.012,-29.881,35.515,2.111,0.290,0.402,0.467,2.41,-2.33,2,0
194771,-0.696,0.033,2.130,-16.869,-37.256,-9.975,-0.0389,-0.0464,-0.0346,0.9976,-3.768,5.463,4.290,-2.463,26.569,2.111,0.004,-0.031,0.012,-17.651,60.000,2.111,0.007,0.568,0.353,2.35,-1.72,2,0
194782,-0.654,0.014,2.138,-11.137,-30.668,-8.698,-0.0383,-0.0444,-0.0354,0.9976,-3.872,5.235,4.223,-1.408,27.449,2.111,0.004,-0.031,0.012,7.181,60.000,2.111,0.028,0.609,0.254,2.34,-1.72,2,0
194802,-0.691,0.027,2.214,2.494,-18.320,-7.372,-0.0373,-0.0423,-0.0352,0.9978,-3.866,4.988,4.119,-0.176,29.384,2.111,0.004,-0.031,0.012,13.421,60.000,2.111,0.166,0.483,0.056,2.31,-1.64,2,0
195253,-0.634,0.070,2.808,22.913,57.708,10.356,-0.0071,-0.1873,0.0067,0.9823,0.978,21.578,1.012,0.000,31.452,2.111,0.004,-0.031,0.012,-4.051,35.488,2.111,-0.731,-0.473,-0.632,1.29,-3.69,2,0
195273,-0.696,0.108,2.878,16.938,38.016,11.627,-0.0085,-0.1942,0.0111,0.9809,1.553,22.379,1.306,0.088,25.337,2.111,0.004,-0.031,0.012,-6.866,22.214,2.111,-0.783,-0.179,-0.705,1.22,-3.51,2,0
195291,-0.633,0.100,2.830,-13.485,-2.003,11.685,-0.0124,-0.1963,0.0131,0.9804,1.897,22.613,1.828,0.000,22.478,2.111,0.004,-0.031,0.012,-9.976,-0.853,2.111,-0.297,0.053,-0.755,1.15,-1.91,2,0
195311,-0.647,0.034,2.836,-39.568,-18.392,8.980,-0.0151,-0.1923,0.0087,0.9812,1.413,22.154,2.036,0.000,23.138,2.111,0.004,-0.031,0.012,-8.350,2.846,2.111,-0.060,0.226,-0.487,1.11,-1.82,2,0
195542,-0.445,-0.035,2.619,15.934,37.906,-11.309,-0.0146,-0.2142,-0.0627,0.9747,-7.340,24.797,0.105,-0.704,13.109,2.111,0.004,-0.031,0.012,38.814,-38.369,2.111,0.137,-0.763,0.628,1.10,-0.06,2,0
195582,-0.426,-0.011,2.750,36.523,-23.371,-4.651,-0.0070,-0.2122,-0.0459,0.9761,-5.461,24.519,359.638,-8.006,15.660,2.111,0.004,-0.031,0.012,-6.311,-33.070,2.111,-0.380,-0.078,-0.068,1.04,-0.97,2,0
195604,-0.413,0.018,2.621,35.186,-39.696,-2.758,-0.0054,-0.2049,-0.0393,0.9780,-4.671,23.656,359.655,-9.018,16.848,2.111,0.004,-0.031,0.012,-19.871,-26.100,2.111,-0.493,0.119,-0.238,1.04,0.04,2,0
195621,-0.409,-0.010,2.650,30.358,-47.756,-0.252,-0.0043,-0.1946,-0.0325,0.9803,-3.853,22.450,359.733,-9.018,17.507,2.111,0.004,-0.031,0.012,-25.976,-18.444,2.111,-0.594,0.295,-0.390,1.04,0.04,2,0
195647,-0.427,-0.001,2.547,16.048,-45.291,-1.029,-0.0035,-0.1817,-0.0268,0.9830,-3.158,20.941,359.826,-8.886,18.123,2.111,0.004,-0.031,0.012,-30.629,-10.217,2.111,-0.675,0.458,-0.400,1.08,0.36,2,0
195668,-0.369,-0.010,2.473,-2.200,-32.611,-1.336,-0.0033,-0.1724,-0.0251,0.9847,-2.946,19.856,359.867,-8.358,17.551,2.111,0.004,-0.031,0.012,-28.587,-8.650,2.111,-0.460,0.474,-0.292,1.15,3.18,2,0
195684,-0.404,-0.005,2.426,-16.596,-20.594,-1.781,-0.0034,-0.1674,-0.0261,0.9855,-3.055,19.272,359.880,-8.314,16.276,2.111,0.004,-0.031,0.012,-28.570,-7.200,2.111,-0.218,0.229,-0.170,1.20,3.03,2,0
195710,-0.393,-0.042,2.460,-44.266,4.644,-3.374,-0.0042,-0.1633,-0.0328,0.9860,-3.837,18.801,359.849,-7.742,14.252,2.111,0.004,-0.031,0.012,-22.180,-13.276,2.111,0.064,-0.055,0.061,1.27,2.88,2,0
195746,-0.366,-0.048,2.404,-61.094,36.099,-4.944,-0.0052,-0.1670,-0.0489,0.9847,-5.747,19.228,359.633,-9.853,12.009,2.111,0.004,-0.031,0.012,-22.748,-25.009,2.111,0.349,-0.343,0.330,1.39,3.55,2,0
195780,-0.379,-0.039,2.386,-59.276,42.153,-5.061,-0.0060,-0.1731,-0.0606,0.9830,-7.155,19.944,359.435,-11.613,8.534,2.111,0.004,-0.031,0.012,-23.618,-35.925,2.111,0.489,-0.485,0.359,1.47,3.38,2,0
195796,-0.364,-0.059,2.460,-56.183,39.490,-4.395,-0.0064,-0.1780,-0.0689,0.9816,-8.157,20.505,359.274,-12.933,7.962,2.111,0.004,-0.031,0.012,-22.554,-43.047,2.111,0.574,-0.570,0.335,1.50,3.01,2,0
195827,-0.408,-0.074,2.536,-24.209,8.602,0.194,-0.0077,-0.1828,-0.0808,0.9798,-9.588,21.068,359.114,-13.021,6.862,2.111,0.004,-0.031,0.012,-18.824,-47.580,2.111,0.146,-0.324,-0.020,1.54,1.07,2,0
196112,-0.409,-0.053,2.515,-39.906,30.970,3.645,0.0023,-0.1611,-0.0944,0.9824,-11.321,18.433,357.892,-7.610,6.510,1.408,0.004,-0.031,0.012,19.923,-41.437,1.408,0.411,-0.366,-0.166,2.30,1.50,2,0
196132,-0.413,-0.072,2.514,-29.529,18.608,6.828,0.0013,-0.1629,-0.0970,0.9819,-11.626,18.637,357.933,-8.710,5.235,1.760,0.004,-0.031,0.012,21.504,-44.587,1.408,0.250,-0.210,-0.261,2.30,-0.02,2,0
196162,-0.371,-0.092,2.542,0.697,-17.563,9.944,-0.0022,-0.1605,-0.0986,0.9821,-11.734,18.402,358.345,-9.282,6.026,1.760,0.004,-0.031,0.012,14.099,-43.760,1.760,-0.113,0.142,-0.476,2.30,-0.02,2,0
196180,-0.371,-0.092,2.542,0.697,-17.563,9.944,-0.0022,-0.1605,-0.0986,0.9821,-11.734,18.402,358.345,-9.282,6.026,1.760,0.004,-0.031,0.012,14.099,-43.760,1.760,-0.113,0.142,-0.476,2.30,-0.02,2,0
196193,-0.342,-0.113,2.508,21.260,-28.993,8.668,-0.0047,-0.1528,-0.0935,0.9838,-11.041,17.549,358.842,-13.504,7.698,2.111,0.004,-0.031,0.012,-10.472,-37.103,2.111,-0.345,0.366,-0.472,2.37,2.27,2,0
196210,-0.318,-0.120,2.321,19.921,-26.552,4.073,-0.0057,-0.1472,-0.0890,0.9851,-10.457,16.919,359.100,-14.340,7.786,2.111,0.004,-0.031,0.012,-20.881,-32.104,2.111,-0.465,0.482,-0.204,2.41,2.15,2,0
196247,-0.230,-0.148,1.688,1.581,5.765,-13.144,-0.0037,-0.1383,-0.0827,0.9869,-9.708,15.874,359.072,-16.628,7.918,2.111,0.004,-0.031,0.012,-37.808,-27.782,2.111,-0.657,0.045,0.228,2.54,3.20,2,0
196263,-0.218,-0.157,1.576,-7.777,20.996,-18.547,-0.0013,-0.1387,-0.0828,0.9869,-9.767,15.903,358.789,-17.683,7.918,2.111,0.004,-0.031,0.012,-37.767,-27.712,2.111,-0.582,-0.111,0.343,2.59,3.04,2,0
196283,-0.189,-0.156,1.505,-20.381,37.628,-23.476,0.0024,-0.1420,-0.0851,0.9862,-10.112,16.239,358.269,-17.023,7.962,2.111,0.004,-0.031,0.012,-42.342,-28.414,2.111,-0.389,-0.274,0.463,2.64,2.89,2,0
196307,-0.178,-0.144,1.514,-42.680,50.029,-26.891,0.0077,-0.1488,-0.0916,0.9846,-11.012,16.951,357.461,-15.220,7.962,2.111,0.004,-0.031,0.012,-30.468,-31.113,2.111,-0.090,-0.430,0.579,2.70,2.72,2,0
196326,-0.178,-0.144,1.534,-46.196,51.202,-26.964,0.0090,-0.1508,-0.0939,0.9841,-11.316,17.162,357.243,-15.220,7.962,2.111,0.004,-0.031,0.012,-30.468,-31.113,2.111,-0.026,-0.464,0.604,2.72,2.72,2,0
196343,-0.168,-0.117,1.641,-59.250,43.770,-24.940,0.0148,-0.1606,-0.1073,0.9811,-13.098,18.172,356.171,-12.449,9.194,2.111,0.004,-0.031,0.012,-1.623,-30.499,2.111,0.243,-0.571,0.698,2.78,2.18,2,0
196902,0.050,-0.055,1.144,48.279,39.577,-8.931,0.0694,-0.1581,-0.0901,0.9808,-12.013,17.317,350.075,0.352,10.029,2.111,0.004,-0.031,0.012,68.201,-24.960,2.111,-0.048,-0.682,-0.329,4.17,3.51,2,0
197158,0.062,-0.032,0.797,55.496,43.481,-13.709,0.1326,-0.1281,-0.0238,0.9826,-4.778,14.211,344.028,0.088,13.416,2.111,0.004,-0.031,0.012,26.365,-1.086,2.111,-0.320,-0.475,-0.008,5.07,2.97,2,0
197176,0.064,-0.026,0.827,54.409,43.609,-12.393,0.1337,-0.1294,-0.0208,0.9823,-4.465,14.399,343.929,0.088,13.416,2.111,0.004,-0.031,0.012,26.365,-1.086,2.111,-0.360,-0.506,-0.067,5.08,2.97,2,0
197193,0.046,-0.013,1.027,46.817,32.441,-9.281,0.1386,-0.1347,-0.0066,0.9811,-2.988,15.219,343.523,0.000,12.713,2.111,0.004,-0.031,0.012,18.204,-6.121,2.111,-0.527,-0.570,-0.311,5.16,2.83,2,0
197218,0.037,-0.007,1.159,30.677,12.866,-6.958,0.1413,-0.1358,0.0016,0.9806,-2.092,15.471,343.312,0.000,12.581,2.111,0.004,-0.031,0.012,11.337,-10.088,2.111,-0.301,-0.208,-0.470,5.21,1.73,2,0
197237,0.034,-0.000,1.228,12.197,-4.150,-5.653,0.1429,-0.1340,0.0050,0.9806,-1.698,15.321,343.190,0.000,12.493,2.111,0.004,-0.031,0.012,9.335,-9.674,2.111,-0.085,-0.007,-0.552,5.24,1.65,2,0
197253,0.032,0.000,1.245,0.719,-16.578,-4.864,0.1437,-0.1308,0.0054,0.9809,-1.608,14.960,343.117,0.000,12.493,2.111,0.004,-0.031,0.012,8.842,-9.328,2.111,0.077,0.143,-0.598,5.26,1.65,2,0
197293,0.028,-0.018,1.209,-24.623,-27.915,-5.986,0.1447,-0.1204,-0.0008,0.9821,-2.146,13.669,342.974,-0.044,11.789,2.111,0.004,-0.031,0.012,10.917,-7.106,2.111,0.345,0.392,-0.401,5.35,2.37,2,0
197321,0.030,-0.037,1.136,-29.138,-23.792,-7.507,0.1456,-0.1117,-0.0093,0.9830,-2.987,12.523,342.821,-1.056,11.305,2.111,0.004,-0.031,0.012,9.908,-4.748,2.111,0.526,0.547,-0.027,5.41,2.18,2,0
197341,0.027,-0.049,1.105,-29.210,-15.721,-9.688,0.1463,-0.1085,-0.0135,0.9832,-3.415,12.089,342.715,-1.100,11.305,2.111,0.004,-0.031,0.012,11.557,-3.554,2.111,0.613,0.270,0.161,5.46,2.39,2,0
197351,0.030,-0.059,1.082,-19.739,-3.547,-12.019,0.1476,-0.1059,-0.0178,0.9832,-3.884,11.713,342.523,-1.408,11.305,2.111,0.004,-0.031,0.012,12.807,-1.778,2.111,0.626,0.125,0.256,5.49,2.39,2,0
197391,0.051,-0.066,1.027,21.602,23.557,-14.450,0.1525,-0.1058,-0.0182,0.9825,-3.984,11.670,341.952,-3.563,11.437,2.111,0.004,-0.031,0.012,5.728,-0.602,2.111,0.098,-0.249,0.504,5.57,2.16,2,0
197419,0.060,-0.062,1.062,39.343,35.308,-16.501,0.1576,-0.1093,-0.0093,0.9814,-3.096,12.219,341.418,-4.619,11.481,2.111,0.004,-0.031,0.012,-7.190,-2.102,2.111,-0.173,-0.434,0.626,5.65,2.53,2,0
197903,0.020,-0.073,1.545,-36.506,-4.977,-15.185,0.1613,-0.1041,-0.0279,0.9810,-5.163,11.262,340.815,-20.191,14.692,2.287,0.004,-0.031,0.012,-80.413,10.958,2.111,-0.158,0.189,0.727,7.09,2.94,2,0
197930,0.022,-0.073,1.486,-24.250,-15.150,-15.647,0.1645,-0.0994,-0.0363,0.9807,-6.066,10.540,340.391,-18.607,13.680,2.111,0.004,-0.031,0.012,-68.792,10.195,2.111,-0.375,0.401,0.798,7.18,3.33,2,0
198148,0.008,-0.046,1.414,-27.410,43.451,8.169,0.1771,-0.1324,-0.0859,0.9715,-12.677,13.106,337.872,-21.202,14.868,2.111,0.004,-0.031,0.012,-43.825,6.741,2.111,0.146,-0.547,-0.633,7.88,2.25,2,0
198187,-0.015,-0.058,1.551,8.979,17.519,11.933,0.1744,-0.1399,-0.0849,0.9710,-12.728,14.013,338.069,-18.255,13.065,-0.704,0.004,-0.031,0.012,-30.056,-3.232,1.408,-0.204,-0.075,-0.745,7.96,2.36,2,0
198218,-0.021,-0.078,1.581,29.350,-11.780,8.939,0.1723,-0.1366,-0.0767,0.9725,-11.662,13.837,338.490,-16.672,12.361,-5.630,0.004,-0.031,0.012,-27.957,-3.922,-5.630,-0.435,0.237,-0.819,8.04,2.25,2,0
198242,-0.014,-0.090,1.523,27.957,-20.166,3.804,0.1718,-0.1311,-0.0714,0.9738,-10.765,13.227,338.746,-15.484,11.789,-5.630,0.004,-0.031,0.012,-25.727,-5.018,-5.630,-0.557,0.402,-0.566,8.11,3.04,2,0
198262,-0.002,-0.101,1.383,16.576,-21.448,-4.908,0.1724,-0.1224,-0.0664,0.9751,-10.123,12.459,338.837,-14.428,11.217,-2.111,0.004,-0.031,0.012,-22.791,-5.006,-4.399,-0.433,0.530,-0.229,8.18,2.89,2,0
198289,0.007,-0.109,1.268,5.844,-13.410,-11.349,0.1742,-0.1165,-0.0645,0.9757,-9.794,11.820,338.741,-14.516,11.877,1.232,0.004,-0.031,0.012,-25.339,-0.549,1.232,-0.157,0.540,0.016,8.24,2.75,2,0
198309,0.019,-0.113,1.149,-11.422,2.727,-19.251,0.1777,-0.1128,-0.0655,0.9754,-9.864,11.350,338.369,-14.428,12.009,1.232,0.004,-0.031,0.012,-25.204,2.137,1.232,0.111,0.185,0.243,8.33,2.76,2,0
198342,0.031,-0.116,1.077,-19.532,16.775,-23.596,0.1809,-0.1129,-0.0679,0.9746,-10.175,11.277,337.957,-13.372,12.009,-1.408,0.004,-0.031,0.012,-17.721,2.565,-1.408,0.258,-0.012,0.369,8.39,3.85,2,0
198363,0.044,-0.117,1.013,-21.312,37.626,-29.682,0.1895,-0.1187,-0.0734,0.9719,-11.051,11.708,336.800,-12.801,11.789,-2.991,0.004,-0.031,0.012,-10.395,0.997,-2.991,0.485,-0.313,0.562,8.52,3.51,2,0
198392,0.040,-0.113,1.059,-11.778,43.785,-31.798,0.1973,-0.1262,-0.0760,0.9692,-11.647,12.391,335.714,-12.933,11.701,-0.704,0.004,-0.031,0.012,-7.353,-1.864,-0.704,0.436,-0.483,0.670,8.62,3.53,2,0
198418,0.034,-0.111,1.116,-3.628,41.544,-32.653,0.2039,-0.1320,-0.0763,0.9670,-11.924,12.958,334.822,-13.109,11.701,1.232,0.004,-0.031,0.012,-6.425,-3.694,1.232,0.150,-0.586,0.735,8.69,3.35,2,0
198431,0.030,-0.103,1.156,6.399,34.189,-33.046,0.2089,-0.1352,-0.0752,0.9656,-11.965,13.277,334.184,-13.504,11.701,1.408,0.004,-0.031,0.012,-6.207,-5.262,1.232,-0.022,-0.527,0.775,8.74,3.17,2,0
198711,0.056,-0.031,0.835,-24.004,38.456,-10.705,0.2711,-0.1135,-0.0717,0.9531,-11.618,10.227,327.206,-20.059,10.073,1.760,0.004,-0.031,0.012,-53.999,6.167,1.760,-0.406,-0.458,-0.325,9.71,3.00,2,0
198719,0.050,-0.030,0.874,-22.971,39.131,-10.094,0.2726,-0.1181,-0.0730,0.9521,-11.940,10.664,326.931,-19.003,9.897,1.760,0.004,-0.031,0.012,-39.250,-2.139,1.760,-0.251,-0.539,-0.404,9.76,2.86,2,0
198749,0.040,-0.027,0.983,-30.328,29.481,-9.361,0.2750,-0.1258,-0.0761,0.9501,-12.600,11.375,326.457,-18.783,9.589,2.111,0.004,-0.031,0.012,-34.534,-5.965,2.111,0.076,-0.615,-0.327,9.85,2.81,2,0
198772,0.039,-0.034,1.045,-37.017,17.969,-9.235,0.2763,-0.1299,-0.0805,0.9488,-13.256,11.652,326.171,-18.299,9.589,2.111,0.004,-0.031,0.012,-28.739,-7.022,2.111,0.275,-0.280,-0.169,9.93,3.52,2,0
198793,0.039,-0.040,1.074,-43.790,4.891,-10.400,0.2773,-0.1318,-0.0862,0.9478,-13.977,11.653,325.953,-17.815,9.677,2.111,0.004,-0.031,0.012,-24.993,-7.291,2.111,0.395,-0.067,0.015,9.99,3.35,2,0
198823,0.048,-0.054,1.049,-43.865,-13.459,-13.460,0.2788,-0.1307,-0.0978,0.9464,-15.242,11.118,325.675,-17.903,9.897,2.111,0.004,-0.031,0.012,-16.311,-4.919,2.111,0.562,0.228,0.287,10.09,3.20,2,0
198853,0.066,-0.068,0.949,-27.160,-19.171,-16.401,0.2811,-0.1261,-0.1076,0.9452,-16.187,10.244,325.415,-18.431,9.897,2.111,0.004,-0.031,0.012,-11.236,-2.081,2.111,0.486,0.430,0.473,10.18,3.05,2,0
198870,0.077,-0.074,0.873,-9.746,-17.381,-17.098,0.2829,-0.1226,-0.1104,0.9448,-16.387,9.746,325.256,-18.431,9.897,2.111,0.004,-0.031,0.012,-11.373,0.107,2.111,0.264,0.515,0.552,10.22,2.90,2,0
198887,0.073,-0.084,0.821,12.702,-12.838,-16.759,0.2851,-0.1189,-0.1105,0.9447,-16.231,9.250,325.057,-18.519,9.941,2.111,0.004,-0.031,0.012,-12.385,2.238,2.111,0.054,0.508,0.626,10.30,2.93,2,0
198922,0.071,-0.098,0.757,52.305,-1.197,-16.806,0.2918,-0.1094,-0.0998,0.9449,-14.787,8.539,324.567,-20.059,10.029,2.111,0.004,-0.031,0.012,-27.281,4.875,2.111,-0.267,0.064,0.726,10.45,4.15,2,0
198950,0.080,-0.098,0.752,65.145,7.484,-19.312,0.2975,-0.1031,-0.0867,0.9452,-13.155,8.242,324.105,-21.114,10.249,2.111,0.004,-0.031,0.012,-42.408,6.883,2.111,-0.437,-0.182,0.789,10.54,3.90,2,0
199467,0.029,-0.076,0.851,-18.804,-6.373,-35.012,0.4168,-0.1000,-0.0712,0.9007,-12.303,6.934,309.590,-3.431,5.323,2.111,0.004,-0.031,0.012,31.021,5.886,2.111,0.083,0.508,0.988,11.66,2.37,2,0
199711,0.084,-0.056,0.534,17.371,-14.581,-25.631,0.4871,-0.0576,-0.0613,0.8693,-9.365,2.317,301.285,-2.815,3.343,2.111,0.004,-0.031,0.012,39.924,2.963,2.111,-0.096,0.544,0.575,12.20,2.11,2,0
199742,0.080,-0.065,0.547,9.931,-12.638,-25.746,0.4915,-0.0520,-0.0611,0.8672,-9.048,1.727,300.777,-2.331,2.815,2.111,0.004,-0.031,0.012,37.359,3.976,2.111,0.157,0.650,0.672,12.22,0.77,2,0
199764,0.075,-0.070,0.565,7.785,-4.605,-25.613,0.4976,-0.0461,-0.0614,0.8640,-8.742,1.058,300.041,-1.804,7.962,2.111,0.004,-0.031,0.012,29.433,17.393,2.111,0.190,0.624,0.753,12.24,0.73,2,0
199787,0.067,-0.079,0.561,5.433,6.599,-25.702,0.5025,-0.0429,-0.0612,0.8614,-8.539,0.715,299.434,-1.408,9.457,2.111,0.004,-0.031,0.012,39.775,30.417,2.111,0.341,0.682,0.802,12.25,0.69,2,0
199811,0.069,-0.082,0.548,6.487,16.879,-26.161,0.5075,-0.0418,-0.0604,0.8585,-8.400,0.601,298.774,-1.408,10.601,2.111,0.004,-0.031,0.012,39.138,31.171,2.111,0.483,0.527,0.845,12.27,0.53,2,0
199838,0.068,-0.086,0.571,13.130,21.930,-26.559,0.5114,-0.0420,-0.0586,0.8563,-8.244,0.690,298.254,-1.232,11.305,2.111,0.004,-0.031,0.012,39.264,37.097,2.111,0.456,0.304,0.871,12.28,0.50,2,0
199873,0.045,-0.091,0.709,36.225,35.665,-27.179,0.5202,-0.0430,-0.0490,0.8515,-7.369,1.274,297.073,-3.167,15.440,2.111,0.004,-0.031,0.012,29.319,44.493,2.111,-0.008,-0.072,0.912,12.28,0.03,2,0
199918,-0.008,-0.090,0.942,59.806,38.140,-27.507,0.5307,-0.0411,-0.0275,0.8461,-5.176,2.318,295.704,-6.950,20.587,2.111,0.004,-0.031,0.012,-5.678,60.000,2.111,-0.364,0.188,0.943,12.26,-0.08,2,0
199942,-0.042,-0.083,1.083,51.797,28.295,-32.150,0.5382,-0.0385,-0.0128,0.8418,-3.617,2.920,294.724,-6.950,22.434,2.111,0.004,-0.031,0.012,-17.319,60.000,2.111,-0.530,0.401,0.958,12.23,-1.00,2,0
199961,-0.053,-0.078,1.141,42.628,19.147,-34.631,0.5430,-0.0376,-0.0067,0.8389,-2.989,3.200,294.086,-6.950,23.710,2.111,0.004,-0.031,0.012,-20.977,60.000,2.111,-0.608,0.500,0.965,12.21,-0.95,2,0
199978,-0.065,-0.076,1.173,35.596,15.509,-36.273,0.5469,-0.0370,-0.0031,0.8364,-2.623,3.348,293.567,-6.950,25.161,2.111,0.004,-0.031,0.012,-22.541,60.000,2.111,-0.653,0.557,0.969,12.20,-0.95,2,0
200270,-0.063,-0.056,1.247,24.092,10.246,-25.976,0.6204,-0.0591,0.0089,0.7820,-3.425,5.935,282.969,-5.411,24.457,2.111,0.004,-0.031,0.012,-9.217,60.000,2.111,-0.244,0.672,0.409,12.02,0.12,2,0
200292,-0.052,-0.060,1.231,26.509,11.058,-27.153,0.6259,-0.0550,0.0136,0.7778,-2.748,5.888,282.214,-5.543,23.754,2.111,0.004,-0.031,0.012,-14.140,60.000,2.111,-0.430,0.742,0.554,12.02,0.11,2,0
200310,-0.057,-0.062,1.228,26.466,15.823,-27.594,0.6283,-0.0535,0.0157,0.7760,-2.475,5.901,281.875,-6.026,23.710,2.111,0.004,-0.031,0.012,-15.909,60.000,2.111,-0.525,0.646,0.628,12.00,-0.01,2,0
200327,-0.051,-0.062,1.216,25.542,18.807,-28.743,0.6328,-0.0517,0.0197,0.7723,-2.018,6.015,281.231,-6.598,23.050,2.111,0.004,-0.031,0.012,-20.649,60.000,2.111,-0.596,0.449,0.684,11.99,-0.98,2,0
200356,-0.045,-0.062,1.200,20.692,23.964,-29.951,0.6383,-0.0511,0.0246,0.7677,-1.583,6.301,280.436,-7.610,21.774,2.111,0.004,-0.031,0.012,-29.394,56.699,2.111,-0.695,0.111,0.762,11.96,-0.93,2,0
200388,-0.044,-0.057,1.200,-0.939,28.320,-31.961,0.6463,-0.0541,0.0295,0.7606,-1.443,6.921,279.206,-8.886,18.959,2.111,0.004,-0.031,0.012,-40.744,42.188,2.111,-0.744,-0.228,0.834,11.93,-0.88,2,0
200419,-0.048,-0.060,1.214,-23.047,30.103,-32.665,0.6524,-0.0609,0.0290,0.7549,-2.061,7.459,278.200,-10.073,16.848,2.111,0.004,-0.031,0.012,-44.063,35.292,2.111,-0.288,-0.430,0.878,11.91,-0.77,2,0
200436,-0.058,-0.060,1.223,-32.285,30.938,-32.884,0.6559,-0.0664,0.0272,0.7514,-2.676,7.791,277.577,-10.557,16.848,2.111,0.004,-0.031,0.012,-43.459,31.688,2.111,-0.074,-0.524,0.898,11.90,-0.55,2,0
200470,-0.052,-0.063,1.198,-42.733,22.866,-30.915,0.6621,-0.0776,0.0211,0.7451,-4.131,8.258,276.447,-10.777,19.135,2.111,0.004,-0.031,0.012,-37.169,36.156,2.111,0.238,-0.236,0.899,11.88,-0.52,2,0
200494,-0.046,-0.064,1.175,-48.863,18.051,-30.659,0.6645,-0.0821,0.0176,0.7425,-4.810,8.355,275.994,-11.173,20.367,2.111,0.004,-0.031,0.012,-34.586,37.754,2.111,0.339,-0.073,0.912,11.87,-0.54,2,0
201028,-0.018,-0.117,1.068,-10.375,35.838,-25.252,0.7660,-0.1427,-0.0143,0.6267,-13.851,9.031,257.479,-14.208,28.196,2.111,0.004,-0.031,0.012,-2.078,60.000,2.111,0.084,-0.138,0.613,11.42,-0.96,2,0
201281,-0.024,-0.131,1.048,4.943,5.573,-41.279,0.8203,-0.0948,0.0279,0.5633,-7.211,8.778,248.400,-13.504,25.337,2.111,0.004,-0.031,0.012,-33.727,57.634,2.111,-0.462,0.529,0.966,11.17,-0.85,2,0
201307,-0.025,-0.130,1.033,-12.300,20.184,-41.724,0.8256,-0.0960,0.0269,0.5553,-7.479,8.691,247.277,-13.504,24.765,2.111,0.004,-0.031,0.012,-32.535,56.081,2.111,-0.125,0.176,0.974,11.15,-0.81,2,0
201332,-0.003,-0.126,1.028,-21.968,32.067,-41.775,0.8306,-0.1014,0.0267,0.5469,-8.102,8.932,246.095,-13.460,24.589,2.111,0.004,-0.031,0.012,-29.905,55.289,2.111,0.135,-0.096,0.980,11.11,-0.87,2,0
201366,0.000,-0.125,1.008,-25.018,45.148,-39.873,0.8364,-0.1122,0.0288,0.5357,-9.153,9.690,244.497,-13.372,24.589,2.111,0.004,-0.031,0.012,-22.913,52.175,2.111,0.387,-0.359,0.986,11.05,-1.61,2,0
201382,-0.004,-0.127,1.006,-20.044,47.252,-37.960,0.8386,-0.1167,0.0306,0.5312,-9.542,10.094,243.853,-13.372,24.589,2.111,0.004,-0.031,0.012,-21.328,51.186,2.111,0.356,-0.443,0.931,11.03,-1.54,2,0
201412,-0.005,-0.128,1.018,-10.895,45.220,-36.256,0.8426,-0.1237,0.0350,0.5230,-10.081,10.857,242.693,-13.284,24.589,2.111,0.004,-0.031,0.012,-17.727,48.111,2.111,0.046,-0.553,0.808,10.99,-1.60,2,0
201444,-0.014,-0.123,1.050,3.835,37.280,-33.826,0.8481,-0.1289,0.0420,0.5122,-10.331,11.723,241.189,-12.669,24.413,2.111,0.004,-0.031,0.012,-15.057,44.868,2.111,-0.273,-0.129,0.755,10.94,-1.45,2,0
201466,-0.032,-0.124,1.085,9.866,30.294,-33.245,0.8510,-0.1295,0.0451,0.5070,-10.272,12.035,240.411,-12.669,24.238,2.111,0.004,-0.031,0.012,-12.517,42.957,2.111,-0.406,0.078,0.795,10.91,-1.43,2,0
201490,-0.049,-0.126,1.156,18.221,14.351,-31.891,0.8559,-0.1272,0.0490,0.4989,-9.942,12.171,239.416,-12.669,24.238,2.111,0.004,-0.031,0.012,-14.024,42.099,2.111,-0.552,0.305,0.811,10.86,-1.80,2,0
201509,-0.053,-0.123,1.195,17.800,5.525,-32.514,0.8589,-0.1245,0.0500,0.4943,-9.675,12.061,238.814,-13.152,24.413,2.111,0.004,-0.031,0.012,-18.169,42.663,2.111,-0.627,0.420,0.842,10.83,-1.72,2,0
201542,-0.048,-0.118,1.225,9.033,-0.378,-33.416,0.8643,-0.1193,0.0492,0.4862,-9.303,11.603,237.771,-13.109,24.457,2.111,0.004,-0.031,0.012,-20.248,44.515,2.111,-0.730,0.581,0.886,10.77,-1.84,2,0
201818,-0.096,-0.141,1.356,29.500,41.687,-20.859,0.8901,-0.1596,0.0904,0.4173,-12.606,17.106,228.336,-10.909,25.953,2.111,0.004,-0.031,0.012,8.827,30.880,2.111,-0.155,-0.067,0.168,10.32,-2.11,2,0
201846,-0.102,-0.147,1.368,39.971,0.719,-27.679,0.8979,-0.1443,0.1013,0.4034,-10.705,17.361,226.751,-7.082,25.337,2.111,0.004,-0.031,0.012,18.859,27.833,2.111,-0.378,0.418,0.530,10.18,-2.33,2,0
201883,-0.100,-0.149,1.302,34.539,-6.488,-34.040,0.9045,-0.1307,0.1009,0.3932,-9.434,16.574,225.619,-2.463,24.809,2.111,0.004,-0.031,0.012,29.917,30.242,2.111,-0.260,0.595,0.673,10.13,-1.58,2,0
201908,-0.082,-0.146,1.242,19.516,1.546,-38.264,0.9090,-0.1242,0.0995,0.3853,-8.931,16.061,224.675,-1.979,23.710,2.111,0.004,-0.031,0.012,36.775,26.443,2.111,0.031,0.467,0.749,10.07,-1.60,2,0
201931,-0.076,-0.148,1.205,4.226,13.821,-39.612,0.9123,-0.1226,0.0990,0.3781,-8.902,15.863,223.779,-1.979,23.534,2.111,0.004,-0.031,0.012,36.278,26.648,2.111,0.224,0.175,0.799,10.02,-2.36,2,0
201949,-0.069,-0.146,1.176,-1.934,24.786,-42.399,0.9147,-0.1235,0.0996,0.3718,-9.081,15.902,222.968,-1.979,23.402,2.111,0.004,-0.031,0.012,37.112,26.234,2.111,0.353,-0.020,0.832,9.99,-2.24,2,0
201982,-0.053,-0.145,1.157,-3.058,37.620,-42.212,0.9175,-0.1264,0.1024,0.3628,-9.445,16.241,221.802,-0.528,22.302,2.111,0.004,-0.031,0.012,41.619,25.462,2.111,0.492,-0.231,0.868,9.94,-2.13,2,0
202001,-0.056,-0.146,1.152,1.700,46.522,-41.498,0.9197,-0.1290,0.1067,0.3552,-9.702,16.736,220.806,-0.044,22.126,2.111,0.004,-0.031,0.012,50.436,19.531,2.111,0.585,-0.372,0.892,9.90,-2.01,2,0
202020,-0.055,-0.143,1.174,13.509,49.777,-40.529,0.9223,-0.1313,0.1143,0.3450,-9.868,17.541,219.496,0.000,21.994,2.111,0.004,-0.031,0.012,51.897,15.945,2.111,0.541,-0.527,0.919,9.85,-1.70,2,0
202047,-0.057,-0.140,1.253,26.511,44.276,-39.314,0.9254,-0.1304,0.1232,0.3339,-9.643,18.368,218.121,0.000,22.126,2.111,0.004,-0.031,0.012,50.689,13.272,2.111,0.185,-0.617,0.935,9.81,-1.66,2,0
202581,0.065,-0.065,0.918,41.465,-3.729,-36.995,0.9849,-0.0167,0.0946,0.1441,-0.334,11.017,196.621,11.657,19.135,2.111,0.004,-0.031,0.012,58.796,29.750,2.111,-0.266,0.305,0.752,8.72,-1.94,2,0
202812,-0.002,0.006,1.585,27.251,-12.283,-8.356,0.9880,-0.0174,0.1261,0.0870,-0.739,14.611,189.971,-0.352,29.736,2.111,0.004,-0.031,0.012,3.738,37.599,2.111,0.126,0.140,-0.366,8.08,-3.44,2,0
202842,0.024,-0.002,1.460,42.233,-30.075,-5.481,0.9898,-0.0038,0.1153,0.0832,0.689,13.236,189.694,-1.232,34.619,2.111,0.004,-0.031,0.012,-8.621,60.000,2.111,-0.248,0.426,-0.553,7.95,-3.40,2,0
202866,0.039,-0.012,1.314,44.376,-28.391,-5.250,0.9909,0.0055,0.1076,0.0812,1.664,12.261,189.547,-1.232,34.619,2.111,0.004,-0.031,0.012,-14.934,60.000,2.111,-0.410,0.550,-0.581,7.87,-3.24,2,0
202886,0.047,-0.022,1.186,45.214,-21.833,-5.998,0.9915,0.0133,0.1019,0.0794,2.495,11.539,189.408,-1.232,34.619,2.111,0.004,-0.031,0.012,-18.850,60.000,2.111,-0.518,0.632,-0.401,7.82,-3.06,2,0
202901,0.051,-0.027,1.104,42.727,-13.647,-7.195,0.9919,0.0185,0.0990,0.0780,3.045,11.151,189.295,-1.232,34.135,2.111,0.004,-0.031,0.012,-21.398,60.000,2.111,-0.582,0.488,-0.231,7.78,-2.72,2,0
202929,0.057,-0.034,1.006,36.119,0.052,-10.902,0.9922,0.0254,0.0963,0.0755,3.787,10.787,189.063,-0.704,33.475,2.287,0.004,-0.031,0.012,-24.781,60.000,2.287,-0.665,0.192,0.014,7.72,-2.59,2,0
202946,0.059,-0.039,0.963,29.746,11.651,-12.741,0.9922,0.0292,0.0960,0.0734,4.202,10.738,188.860,-0.704,33.475,2.111,0.004,-0.031,0.012,-25.070,60.000,2.111,-0.721,-0.007,0.178,7.68,-2.42,2,0
202961,0.063,-0.038,0.946,24.216,20.797,-14.501,0.9922,0.0313,0.0970,0.0718,4.437,10.831,188.696,-0.616,32.947,2.287,0.004,-0.031,0.012,-25.747,60.000,2.111,-0.731,-0.120,0.272,7.66,-2.42,2,0
202982,0.063,-0.037,0.984,-5.197,37.207,-16.868,0.9919,0.0323,0.1024,0.0676,4.557,11.466,188.254,-0.616,31.716,2.111,0.004,-0.031,0.012,-27.287,60.000,2.111,-0.365,-0.337,0.451,7.61,-1.80,2,0
202999,0.065,-0.036,1.036,-28.581,42.572,-19.717,0.9917,0.0281,0.1070,0.0652,4.081,12.033,187.957,-1.056,31.672,2.111,0.004,-0.031,0.012,-27.503,60.000,2.111,-0.138,-0.447,0.542,7.58,-1.77,2,0
203019,0.058,-0.032,1.126,-51.135,41.313,-21.671,0.9915,0.0196,0.1120,0.0626,3.102,12.693,187.567,-1.056,31.144,2.111,0.004,-0.031,0.012,-22.199,60.000,2.111,0.070,-0.518,0.626,7.53,-2.19,2,0
203047,0.055,-0.034,1.201,-63.566,30.402,-21.143,0.9913,0.0033,0.1173,0.0592,1.200,13.429,186.973,-0.352,30.440,2.111,0.004,-0.031,0.012,-8.804,59.512,2.111,0.299,-0.148,0.718,7.47,-2.08,2,0
203070,0.046,-0.031,1.231,-53.516,11.713,-16.509,0.9913,-0.0096,0.1185,0.0566,-0.327,13.652,186.500,-0.264,29.384,2.111,0.004,-0.031,0.012,-1.529,54.956,2.111,0.450,0.100,0.546,7.41,-2.08,2,0
203092,0.046,-0.027,1.224,-43.369,-1.273,-12.036,0.9915,-0.0182,0.1168,0.0552,-1.364,13.509,186.209,-0.176,29.340,2.111,0.004,-0.031,0.012,4.710,55.017,2.111,0.551,0.264,0.263,7.36,-2.81,2,0
203507,0.058,-0.034,1.228,-27.951,34.599,-8.395,0.9918,-0.0407,0.1196,0.0164,-4.537,13.808,181.343,0.176,34.619,2.111,0.004,-0.031,0.012,23.029,60.000,2.111,0.734,0.002,-0.039,6.36,-2.47,2,0
203523,0.060,-0.035,1.220,-20.592,45.777,-5.119,0.9911,-0.0444,0.1242,0.0155,-4.977,14.335,181.168,0.176,34.619,2.111,0.004,-0.031,0.012,25.691,60.000,2.111,0.728,-0.164,-0.199,6.31,-2.39,2,0
203532,0.059,-0.037,1.240,-13.749,49.860,-4.571,0.9906,-0.0460,0.1281,0.0150,-5.178,14.778,181.064,0.176,34.619,2.111,0.004,-0.031,0.012,26.702,60.000,2.111,0.559,-0.260,-0.290,6.29,-2.39,2,0
203558,0.058,-0.045,1.290,5.209,53.237,-1.784,0.9893,-0.0467,0.1373,0.0138,-5.287,15.836,180.865,0.176,34.619,2.111,0.004,-0.031,0.012,27.789,60.000,2.111,0.199,-0.431,-0.454,6.22,-2.47,2,0
203579,0.055,-0.052,1.352,26.706,51.113,-0.525,0.9885,-0.0436,0.1445,0.0128,-4.935,16.668,180.763,0.000,31.935,2.111,0.004,-0.031,0.012,26.102,57.042,2.111,-0.020,-0.496,-0.554,6.17,-2.40,2,0
203599,0.051,-0.057,1.398,38.734,46.461,-0.524,0.9880,-0.0394,0.1491,0.0119,-4.296,17.334,180.686,0.000,30.792,2.111,0.004,-0.031,0.012,22.396,47.197,2.111,-0.199,-0.448,-0.551,6.12,-2.73,2,0
203826,0.070,-0.067,1.049,-3.719,14.349,-40.723,0.9910,-0.0019,0.1272,-0.0415,-0.849,14.598,175.096,-0.176,24.413,2.111,0.004,-0.031,0.012,3.378,34.282,2.111,0.438,0.076,0.805,5.75,-0.78,2,0
203853,0.069,-0.059,1.072,11.158,33.073,-38.044,0.9899,-0.0026,0.1314,-0.0533,-1.135,15.065,173.684,-1.408,19.531,2.111,0.004,-0.031,0.012,-1.493,21.702,2.111,0.048,-0.237,0.859,5.73,-0.72,2,0
203876,0.063,-0.050,1.123,17.305,40.790,-34.502,0.9889,-0.0008,0.1359,-0.0599,-1.063,15.587,172.917,-1.540,17.199,2.111,0.004,-0.031,0.012,-1.884,11.449,2.111,-0.144,-0.376,0.679,5.72,-0.53,2,0
203898,0.059,-0.039,1.215,21.001,42.570,-32.079,0.9877,0.0023,0.1417,-0.0668,-0.861,16.269,172.139,-1.979,14.120,2.111,0.004,-0.031,0.012,-5.569,-2.482,2.111,-0.314,-0.501,0.447,5.71,-0.64,2,0
203922,0.046,-0.015,1.338,11.575,34.478,-28.205,0.9860,0.0059,0.1488,-0.0751,-0.642,17.117,171.187,-0.880,12.009,2.111,0.004,-0.031,0.012,-4.026,-15.638,2.111,-0.369,-0.631,0.158,5.64,-2.05,2,0
203942,0.039,-0.004,1.400,4.857,24.173,-25.349,0.9853,0.0067,0.1512,-0.0790,-0.643,17.399,170.736,-0.352,12.009,2.111,0.004,-0.031,0.012,1.521,-18.622,2.111,-0.141,-0.576,-0.016,5.61,-1.95,2,0
203959,0.033,0.005,1.447,-6.158,10.190,-22.353,0.9848,0.0060,0.1522,-0.0830,-0.808,17.504,170.240,-0.176,12.625,2.111,0.004,-0.031,0.012,2.677,-19.188,2.111,0.049,-0.314,-0.179,5.58,-1.88,2,0
203973,0.029,0.012,1.477,-14.579,-1.586,-20.240,0.9848,0.0043,0.1514,-0.0854,-1.042,17.392,169.930,-0.176,12.713,2.111,0.004,-0.031,0.012,3.880,-16.628,2.111,0.174,-0.140,-0.288,5.55,-1.88,2,0
203988,0.030,0.015,1.487,-21.875,-15.264,-17.277,0.9850,0.0012,0.1488,-0.0876,-1.420,17.056,169.625,-0.044,12.757,2.111,0.004,-0.031,0.012,6.161,-15.523,2.111,0.297,0.030,-0.394,5.52,-1.99,2,0
204007,0.033,0.018,1.460,-27.195,-25.454,-15.000,0.9855,-0.0033,0.1441,-0.0895,-1.931,16.468,169.346,-0.044,12.713,2.111,0.004,-0.031,0.012,9.875,-13.365,2.111,0.414,0.191,-0.495,5.48,-1.90,2,0
204039,0.045,0.013,1.347,-18.011,-33.782,-10.529,0.9868,-0.0111,0.1331,-0.0920,-2.755,15.104,168.984,0.000,12.757,2.111,0.004,-0.031,0.012,14.741,-8.654,2.111,0.573,0.414,-0.634,5.44,-1.59,2,0
204069,0.056,0.004,1.201,3.523,-29.202,-7.998,0.9880,-0.0138,0.1220,-0.0940,-2.960,13.801,168.776,-0.044,15.440,2.287,0.004,-0.031,0.012,15.849,2.997,2.287,0.209,0.568,-0.726,5.42,-0.43,2,0
204091,0.057,-0.004,1.106,15.802,-19.411,-7.247,0.9887,-0.0120,0.1151,-0.0956,-2.694,13.018,168.649,-0.176,16.276,2.287,0.004,-0.031,0.012,14.116,10.701,2.287,-0.032,0.654,-0.736,5.42,-0.41,2,0
204110,0.070,-0.008,1.037,19.873,-7.153,-8.645,0.9890,-0.0091,0.1106,-0.0973,-2.319,12.529,168.503,-0.176,16.364,2.287,0.004,-0.031,0.012,12.224,12.657,2.287,-0.209,0.439,-0.492,5.41,-0.40,2,0
204550,0.061,-0.024,1.231,9.758,48.995,-5.686,0.9814,0.0219,0.1334,-0.1360,0.403,15.536,164.273,-0.176,15.748,2.111,0.004,-0.031,0.012,-2.938,1.270,2.111,-0.503,-0.682,0.257,5.14,-0.27,2,0
204578,0.044,-0.022,1.328,-8.547,43.316,-8.077,0.9803,0.0226,0.1401,-0.1372,0.351,16.309,164.116,-0.176,15.572,2.287,0.004,-0.031,0.012,-3.142,-1.579,2.287,-0.204,-0.727,0.405,5.12,-0.30,2,0
204591,0.038,-0.022,1.410,-29.146,32.405,-10.398,0.9795,0.0195,0.1451,-0.1383,-0.116,16.838,163.914,-0.264,15.440,2.287,0.004,-0.031,0.012,-1.790,-4.107,2.287,0.016,-0.441,0.514,5.11,-0.69,2,0
204610,0.025,-0.023,1.473,-42.900,21.068,-10.626,0.9790,0.0138,0.1483,-0.1390,-0.846,17.108,163.712,-0.352,15.440,2.287,0.004,-0.031,0.012,2.153,-5.755,2.287,0.180,-0.201,0.594,5.10,-0.65,2,0
204806,0.040,-0.060,0.965,40.117,24.646,5.270,0.9817,-0.0214,0.1283,-0.1390,-4.600,14.240,163.302,-0.176,15.088,2.287,0.004,-0.031,0.012,25.640,3.289,2.639,-0.493,-0.138,-0.663,5.13,0.74,2,0
204823,0.040,-0.060,0.965,40.117,24.646,5.270,0.9817,-0.0214,0.1283,-0.1390,-4.600,14.240,163.302,-0.176,15.088,2.287,0.004,-0.031,0.012,25.640,3.289,2.639,-0.493,-0.138,-0.663,5.13,0.74,2,0
204850,0.022,-0.063,1.076,16.618,38.975,0.284,0.9807,-0.0069,0.1361,-0.1399,-3.065,15.371,163.351,-0.176,14.164,2.111,0.004,-0.031,0.012,16.159,-1.330,2.111,-0.397,-0.469,-0.151,5.10,-0.66,2,0
204869,0.008,-0.071,1.148,-1.707,37.211,-2.973,0.9801,-0.0053,0.1402,-0.1404,-2.968,15.858,163.285,-0.044,14.164,2.111,0.004,-0.031,0.012,15.013,-5.544,2.111,-0.165,-0.558,0.040,5.09,-0.62,2,0
204900,-0.007,-0.074,1.247,-26.313,29.333,-7.494,0.9793,-0.0080,0.1448,-0.1412,-3.374,16.339,163.110,-0.176,12.361,2.111,0.004,-0.031,0.012,16.396,-11.499,2.111,0.068,-0.644,0.231,5.08,-0.56,2,0
204914,-0.013,-0.075,1.319,-38.065,20.189,-10.454,0.9787,-0.0130,0.1476,-0.1419,-4.023,16.568,162.910,-0.704,11.349,2.111,0.004,-0.031,0.012,17.096,-16.247,2.111,0.223,-0.481,0.359,5.08,-0.28,2,0
204938,-0.022,-0.081,1.397,-46.332,4.498,-13.955,0.9782,-0.0220,0.1490,-0.1432,-5.128,16.573,162.594,-1.232,10.073,2.111,0.004,-0.031,0.012,19.057,-20.990,2.111,0.390,-0.162,0.497,5.07,-0.26,2,0
204963,-0.022,-0.087,1.413,-47.666,-15.697,-17.309,0.9779,-0.0354,0.1461,-0.1454,-6.675,15.990,162.142,-1.408,9.941,2.111,0.004,-0.031,0.012,27.101,-21.336,2.111,0.549,0.142,0.629,5.08,0.19,2,0
204983,-0.019,-0.092,1.362,-37.295,-23.512,-17.481,0.9779,-0.0436,0.1418,-0.1473,-7.566,15.333,161.850,-1.408,9.897,2.111,0.004,-0.031,0.012,31.776,-19.938,2.111,0.632,0.299,0.696,5.08,0.18,2,0
205012,-0.005,-0.096,1.215,-9.499,-28.088,-17.624,0.9783,-0.0503,0.1332,-0.1506,-8.216,14.209,161.468,-3.431,9.897,2.111,0.004,-0.031,0.012,29.829,-15.900,2.111,0.391,0.471,0.771,5.13,0.41,2,0
205029,0.001,-0.096,1.098,8.705,-24.338,-17.266,0.9786,-0.0510,0.1273,-0.1532,-8.210,13.501,161.229,-4.927,9.941,2.111,0.004,-0.031,0.012,21.961,-12.944,2.111,0.160,0.559,0.795,5.17,2.51,2,0
205061,0.020,-0.087,0.927,28.719,-8.655,-15.936,0.9791,-0.0467,0.1185,-0.1585,-7.592,12.546,160.770,-8.710,11.085,2.111,0.004,-0.031,0.012,-0.199,-5.885,2.111,-0.161,0.246,0.738,5.24,2.22,2,0
205078,0.028,-0.080,0.875,32.557,2.356,-14.862,0.9792,-0.0427,0.1158,-0.1612,-7.112,12.297,160.530,-10.557,11.701,2.111,0.004,-0.031,0.012,-16.175,-2.081,2.111,-0.286,0.060,0.624,5.27,1.64,2,0
205106,0.035,-0.070,0.845,27.247,20.775,-13.909,0.9789,-0.0367,0.1149,-0.1651,-6.404,12.308,160.119,-12.801,12.273,2.111,0.004,-0.031,0.012,-30.694,0.083,2.111,-0.451,-0.185,0.454,5.31,1.56,2,0
205126,0.036,-0.060,0.888,16.734,35.020,-13.190,0.9780,-0.0314,0.1180,-0.1690,-5.966,12.719,159.722,-12.801,11.657,2.111,0.004,-0.031,0.012,-37.158,-3.546,2.111,-0.569,-0.360,0.368,5.34,1.48,2,0
205402,0.010,-0.085,0.990,-0.939,33.065,-6.907,0.9693,-0.1049,0.1251,-0.1836,-14.758,11.769,157.019,-3.783,9.809,2.111,0.004,-0.031,0.012,56.361,-4.992,2.111,0.740,-0.189,0.181,5.57,1.78,2,0
205423,0.010,-0.093,1.064,22.270,42.377,-6.634,0.9686,-0.0999,0.1308,-0.1864,-14.373,12.481,156.629,-0.176,9.677,2.111,0.004,-0.031,0.012,72.295,-8.700,2.111,0.659,-0.363,0.097,5.61,1.69,2,0
205443,0.007,-0.094,1.135,35.269,44.613,-7.768,0.9682,-0.0936,0.1349,-0.1889,-13.792,13.058,156.331,0.308,12.229,2.111,0.004,-0.031,0.012,75.675,-8.468,2.111,0.589,-0.480,0.196,5.64,1.61,2,0
205477,-0.001,-0.097,1.269,55.352,35.435,-11.161,0.9677,-0.0791,0.1401,-0.1941,-12.345,13.917,155.804,0.352,14.692,2.111,0.004,-0.031,0.012,71.001,0.625,2.111,0.174,-0.161,0.406,5.65,1.35,2,0
205498,-0.005,-0.095,1.363,64.128,17.852,-15.405,0.9676,-0.0643,0.1407,-0.1995,-10.732,14.274,155.355,0.352,15.924,2.111,0.004,-0.031,0.012,60.439,5.772,2.111,-0.097,0.107,0.543,5.64,-0.21,2,0
205511,-0.009,-0.096,1.388,64.157,9.015,-18.559,0.9676,-0.0575,0.1393,-0.2023,-9.957,14.266,155.131,3.343,16.496,2.111,0.004,-0.031,0.012,64.935,7.693,2.111,-0.200,0.209,0.595,5.64,-0.21,2,0
205550,-0.004,-0.085,1.382,45.843,-6.610,-27.381,0.9674,-0.0413,0.1318,-0.2120,-8.037,13.738,154.307,10.997,15.308,2.111,0.004,-0.031,0.012,90.000,5.285,2.111,0.098,0.450,0.719,5.68,1.20,2,0
205572,-0.003,-0.068,1.325,30.105,-4.667,-30.738,0.9668,-0.0338,0.1257,-0.2198,-7.114,13.193,153.566,14.956,14.120,2.111,0.004,-0.031,0.012,90.000,2.651,2.111,0.306,0.474,0.784,5.71,1.14,2,0
205604,0.000,-0.052,1.247,8.830,12.492,-30.684,0.9653,-0.0296,0.1222,-0.2289,-6.660,12.852,152.574,17.771,12.845,2.111,0.004,-0.031,0.012,90.000,2.247,2.111,0.498,0.067,0.843,5.74,0.95,2,0
205622,0.004,-0.046,1.232,3.001,20.278,-30.189,0.9645,-0.0289,0.1226,-0.2321,-6.636,12.887,152.188,18.563,12.757,2.111,0.004,-0.031,0.012,90.000,-0.449,2.111,0.564,-0.074,0.864,5.75,0.91,2,0
205642,0.004,-0.039,1.221,-0.103,29.093,-28.993,0.9634,-0.0284,0.1241,-0.2357,-6.673,13.047,151.737,19.883,12.713,2.111,0.004,-0.031,0.012,90.000,-0.860,2.111,0.614,-0.180,0.864,5.76,0.91,2,0
206178,0.007,0.040,0.974,65.148,6.226,-5.084,0.9198,0.1617,0.0798,-0.3484,14.507,15.047,140.432,25.689,6.862,2.111,0.004,-0.031,0.012,66.148,-28.362,2.111,0.066,0.113,-0.439,6.39,1.53,2,0
206830,-0.068,-0.032,0.986,-21.148,42.331,15.439,0.9467,0.0622,0.0739,-0.3073,4.216,10.265,144.414,-34.179,18.475,2.287,0.004,-0.031,0.012,-90.000,28.218,2.287,-0.768,-0.268,-0.009,7.60,1.86,2,0
207111,-0.111,-0.083,1.008,-30.439,24.246,1.825,0.9534,-0.0390,0.1002,-0.2820,-7.632,9.728,146.389,-26.569,26.041,2.111,0.004,-0.031,0.012,-90.000,51.227,2.111,-0.763,0.330,0.134,8.06,2.22,2,0
207140,-0.112,-0.084,1.004,-29.074,36.899,3.473,0.9529,-0.0416,0.1051,-0.2813,-8.084,10.189,146.380,-24.238,27.581,2.111,0.004,-0.031,0.012,-90.000,58.346,2.111,-0.806,0.087,-0.010,8.10,2.11,2,0
207170,-0.112,-0.090,1.029,-31.668,50.986,4.919,0.9517,-0.0450,0.1180,-0.2797,-8.909,11.500,146.341,-22.126,28.152,1.408,0.004,-0.031,0.012,-69.978,58.160,1.408,-0.641,-0.245,-0.306,8.16,1.75,2,0
207188,-0.117,-0.089,1.058,-34.470,52.940,5.075,0.9510,-0.0468,0.1248,-0.2790,-9.341,12.200,146.303,-21.114,27.581,1.408,0.004,-0.031,0.012,-65.642,56.068,1.408,-0.396,-0.357,-0.351,8.19,1.66,2,0
207220,-0.125,-0.093,1.096,-38.488,52.110,3.804,0.9498,-0.0502,0.1354,-0.2776,-10.091,13.262,146.241,-20.630,26.525,1.408,0.004,-0.031,0.012,-55.835,46.465,1.408,-0.052,-0.516,-0.311,8.23,1.59,2,0
207253,-0.153,-0.098,1.172,-43.552,36.383,1.251,0.9471,-0.0596,0.1534,-0.2754,-11.785,14.943,146.027,-20.543,22.566,2.111,0.004,-0.031,0.012,-47.875,29.823,2.111,0.312,-0.640,0.138,8.30,1.54,2,0
207284,-0.164,-0.102,1.179,-44.021,16.634,-2.766,0.9456,-0.0681,0.1612,-0.2742,-13.022,15.514,145.874,-20.543,19.839,2.111,0.004,-0.031,0.012,-41.926,20.352,2.111,0.502,-0.261,0.376,8.35,1.80,2,0
207302,-0.166,-0.102,1.173,-43.001,5.167,-5.111,0.9451,-0.0727,0.1629,-0.2739,-13.606,15.547,145.807,-20.543,19.663,2.111,0.004,-0.031,0.012,-37.693,14.623,2.111,0.576,-0.073,0.469,8.38,1.71,2,0
207332,-0.163,-0.109,1.118,-41.628,-13.153,-11.704,0.9443,-0.0831,0.1619,-0.2743,-14.741,15.079,145.648,-20.059,19.135,2.111,0.004,-0.031,0.012,-32.876,15.244,2.111,0.687,0.208,0.608,8.44,1.69,2,0
207652,-0.208,-0.084,1.092,27.621,-15.621,-35.889,0.9348,-0.0087,0.1089,-0.3379,-5.255,11.401,139.728,-19.355,5.103,2.111,0.004,-0.031,0.012,-74.552,-20.257,2.111,-0.889,-0.032,0.970,8.98,1.12,2,0
207670,-0.209,-0.082,1.088,17.321,-15.116,-37.490,0.9330,-0.0051,0.1030,-0.3448,-4.701,10.873,138.986,-21.994,4.399,2.111,0.004,-0.031,0.012,-90.000,-20.966,2.111,-0.913,-0.241,0.976,9.02,1.14,2,0
207689,-0.207,-0.080,1.074,7.753,-11.783,-38.034,0.9312,-0.0029,0.1002,-0.3504,-4.418,10.639,138.350,-20.894,-1.232,2.287,0.004,-0.031,0.012,-90.000,-36.363,2.111,-0.928,-0.367,0.980,9.05,1.72,2,0
207727,-0.182,-0.074,1.020,-28.448,-4.054,-38.993,0.9253,-0.0051,0.0979,-0.3664,-4.729,10.227,136.371,-24.282,-7.874,2.815,0.004,-0.031,0.012,-90.000,-60.000,2.815,-0.583,-0.626,0.988,9.13,1.50,2,0
207758,-0.171,-0.071,0.984,-44.458,-9.879,-37.659,0.9223,-0.0122,0.0982,-0.3735,-5.582,9.906,135.430,-24.282,-9.721,2.815,0.004,-0.031,0.012,-90.000,-60.000,2.815,-0.217,-0.712,0.991,9.17,1.63,2,0
207782,-0.150,-0.071,0.943,-54.342,-19.472,-37.318,0.9188,-0.0249,0.0979,-0.3815,-7.012,9.254,134.329,-23.402,-10.909,2.815,0.004,-0.031,0.012,-90.000,-60.000,2.815,0.110,-0.384,0.993,9.22,1.55,2,0
207810,-0.135,-0.067,0.895,-51.765,-27.273,-34.790,0.9159,-0.0372,0.0960,-0.3880,-8.294,8.450,133.468,-23.226,-12.097,2.815,0.004,-0.031,0.012,-85.289,-60.000,2.815,-0.115,-0.043,0.910,9.28,2.19,2,0
207839,-0.120,-0.064,0.822,-49.932,-34.453,-32.493,0.9129,-0.0508,0.0923,-0.3943,-9.612,7.382,132.654,-24.853,-13.372,2.639,0.004,-0.031,0.012,-86.431,-60.000,2.815,-0.211,0.230,0.809,9.34,2.00,2,0
208386,-0.101,-0.145,0.413,-40.506,6.628,-11.814,0.8523,-0.2058,0.1185,-0.4659,-27.470,0.592,122.529,-33.519,-12.053,2.639,0.004,-0.031,0.012,-29.864,-43.801,2.639,0.145,-0.371,-0.176,10.15,0.92,2,0
208628,-0.062,-0.204,0.323,-8.581,22.456,-45.189,0.8263,-0.2270,0.1075,-0.5042,-28.956,-2.940,117.980,-33.519,11.437,4.223,0.004,-0.031,0.012,-19.231,42.536,4.223,-0.132,0.371,0.882,10.20,-0.77,2,0
208651,-0.060,-0.186,0.468,-16.018,48.580,-45.372,0.8144,-0.2224,0.1218,-0.5219,-29.322,-1.937,115.204,-29.384,26.569,3.519,0.004,-0.031,0.012,-15.674,60.000,4.047,-0.062,-0.108,0.927,10.15,-1.16,2,0
208678,-0.061,-0.181,0.505,-17.343,52.625,-45.846,0.8117,-0.2209,0.1255,-0.5259,-29.394,-1.640,114.553,-25.557,29.340,3.519,0.004,-0.031,0.012,-0.185,60.000,3.519,0.040,-0.194,0.934,10.13,-1.10,2,0
208707,-0.083,-0.162,0.722,-13.828,57.477,-41.825,0.7980,-0.2125,0.1445,-0.5451,-29.776,-0.057,111.343,-19.487,34.619,4.047,0.004,-0.031,0.012,52.792,60.000,4.047,0.397,-0.471,0.957,10.04,-2.43,2,0
208733,-0.089,-0.153,0.807,-7.659,52.832,-40.390,0.7933,-0.2085,0.1505,-0.5519,-29.795,0.498,110.211,-8.226,34.619,3.519,0.004,-0.031,0.012,90.000,60.000,3.519,0.507,-0.219,0.897,10.00,-2.32,2,0
208751,-0.103,-0.147,0.921,5.080,40.661,-37.494,0.7877,-0.2026,0.1561,-0.5604,-29.622,1.082,108.851,-7.390,34.619,2.815,0.004,-0.031,0.012,90.000,60.000,2.815,0.605,0.024,0.719,9.94,-2.25,2,0
208772,-0.115,-0.143,1.013,25.540,26.667,-35.896,0.7842,-0.1964,0.1571,-0.5672,-29.102,1.349,107.895,-7.962,34.619,2.815,0.004,-0.031,0.012,90.000,60.000,2.815,0.461,0.218,0.558,9.89,-2.56,2,0
208806,-0.121,-0.139,1.109,47.730,8.433,-35.353,0.7809,-0.1862,0.1525,-0.5764,-27.822,1.356,106.804,-8.886,34.619,2.815,0.004,-0.031,0.012,90.000,60.000,2.815,0.101,0.411,0.603,9.82,-2.41,2,0
208822,-0.121,-0.133,1.149,61.086,0.034,-36.785,0.7790,-0.1759,0.1441,-0.5843,-26.268,1.091,106.004,-9.370,34.619,2.639,0.004,-0.031,0.012,90.000,60.000,2.639,-0.136,0.538,0.688,9.74,-3.08,2,0
208838,-0.118,-0.126,1.154,65.262,-0.209,-37.503,0.7778,-0.1685,0.1375,-0.5897,-25.100,0.869,105.476,-9.941,34.619,2.639,0.004,-0.031,0.012,83.406,60.000,2.639,-0.265,0.607,0.735,9.70,-2.93,2,0
208853,-0.115,-0.124,1.147,65.825,3.232,-38.999,0.7766,-0.1616,0.1316,-0.5945,-24.042,0.704,104.981,-10.425,34.619,2.639,0.004,-0.031,0.012,76.775,60.000,2.639,-0.362,0.659,0.770,9.66,-2.93,2,0
208878,-0.103,-0.112,1.142,58.459,14.526,-41.477,0.7735,-0.1484,0.1224,-0.6039,-22.175,0.586,103.927,-10.469,34.619,2.639,0.004,-0.031,0.012,63.980,60.000,2.639,-0.509,0.387,0.823,9.59,-2.72,2,0
208903,-0.100,-0.103,1.165,47.237,29.359,-42.977,0.7695,-0.1361,0.1172,-0.6128,-20.674,0.776,102.794,-9.941,34.619,2.287,0.004,-0.031,0.012,57.890,60.000,2.287,-0.471,0.088,0.861,9.51,-3.20,2,0
209366,-0.118,-0.086,1.862,-20.197,34.918,-24.845,0.6643,0.0379,0.1336,-0.7345,-8.632,13.487,83.229,-19.135,34.619,1.760,0.004,-0.031,0.012,-15.498,60.000,1.760,0.378,0.341,0.209,8.01,-3.56,2,0
209382,-0.118,-0.086,1.862,-20.197,34.918,-24.845,0.6643,0.0379,0.1336,-0.7345,-8.632,13.487,83.229,-19.135,34.619,1.760,0.004,-0.031,0.012,-15.498,60.000,1.760,0.378,0.341,0.209,8.01,-3.56,2,0
209407,-0.110,-0.095,1.802,-5.139,18.118,-20.691,0.6573,0.0389,0.1402,-0.7395,-9.261,13.995,82.129,-25.161,34.619,1.408,0.004,-0.031,0.012,-81.425,60.000,1.408,-0.116,0.578,-0.149,7.87,-3.21,2,0
209619,-0.080,-0.102,1.872,-25.530,57.689,-26.806,0.6131,0.0950,0.1703,-0.7655,-8.879,20.750,75.757,-27.537,34.619,2.111,0.004,-0.031,0.012,-90.000,48.569,2.111,-0.694,-0.610,0.762,7.24,-2.51,2,0
209638,-0.080,-0.100,1.911,-37.623,43.608,-24.613,0.6068,0.0971,0.1834,-0.7673,-10.155,21.812,74.711,-24.282,34.619,2.111,0.004,-0.031,0.012,-70.619,44.878,2.111,-0.270,-0.174,0.659,7.16,-2.36,2,0
209658,-0.084,-0.099,1.917,-44.154,32.386,-22.192,0.6033,0.0960,0.1918,-0.7681,-11.142,22.272,74.100,-23.578,34.619,2.111,0.004,-0.031,0.012,-61.680,43.044,2.111,-0.038,0.041,0.461,7.10,-3.02,2,0
209683,-0.074,-0.096,1.886,-46.307,19.264,-19.655,0.6004,0.0927,0.2003,-0.7686,-12.388,22.527,73.494,-24.633,34.619,2.287,0.004,-0.031,0.012,-59.604,42.214,2.111,0.186,0.247,0.156,7.04,-2.88,2,0
209710,-0.058,-0.102,1.799,-42.413,6.714,-15.177,0.5977,0.0858,0.2091,-0.7692,-13.715,22.453,72.967,-25.689,34.619,2.639,0.004,-0.031,0.012,-59.954,42.178,2.639,0.177,0.433,-0.111,6.96,-2.74,2,0
209732,-0.056,-0.108,1.715,-35.821,5.028,-14.011,0.5963,0.0811,0.2136,-0.7695,-14.518,22.308,72.672,-26.217,34.619,2.639,0.004,-0.031,0.012,-58.645,42.660,2.639,-0.038,0.536,-0.246,6.92,-2.57,2,0
209752,-0.040,-0.116,1.607,-26.609,8.309,-14.310,0.5948,0.0774,0.2170,-0.7701,-15.151,22.173,72.381,-26.217,34.619,2.639,0.004,-0.031,0.012,-55.306,43.190,2.639,-0.214,0.621,-0.184,6.87,-2.20,2,0
209773,-0.031,-0.124,1.503,-15.048,17.874,-14.474,0.5927,0.0756,0.2200,-0.7711,-15.642,22.172,72.014,-26.833,30.968,2.639,0.004,-0.031,0.012,-53.510,36.054,2.639,-0.371,0.377,-0.024,6.83,-2.09,2,0
209800,-0.021,-0.133,1.397,-3.474,31.303,-15.418,0.5895,0.0769,0.2229,-0.7726,-15.936,22.436,71.513,-25.161,29.604,2.639,0.004,-0.031,0.012,-48.407,25.078,2.639,-0.506,0.080,0.176,6.79,-1.73,2,0
209813,-0.017,-0.134,1.387,-1.072,33.097,-16.339,0.5889,0.0774,0.2234,-0.7729,-15.963,22.507,71.414,-25.161,29.604,2.639,0.004,-0.031,0.012,-48.407,25.078,2.639,-0.526,0.038,0.208,6.78,-1.73,2,0
209842,-0.010,-0.136,1.363,2.731,38.504,-17.107,0.5868,0.0796,0.2247,-0.7739,-16.016,22.760,71.098,-22.522,27.977,2.639,0.004,-0.031,0.012,-46.061,24.447,2.639,-0.580,-0.081,0.299,6.76,-1.65,2,0
209870,-0.006,-0.141,1.375,-8.968,53.789,-22.519,0.5758,0.0915,0.2346,-0.7778,-16.553,24.360,69.427,-15.220,20.806,2.639,0.004,-0.031,0.012,0.633,-1.122,2.639,-0.033,-0.445,0.577,6.69,-1.37,2,0
209879,-0.014,-0.144,1.407,-14.712,54.029,-23.353,0.5718,0.0948,0.2394,-0.7789,-16.954,24.931,68.794,-15.220,20.367,2.639,0.004,-0.031,0.012,8.382,-15.433,2.639,0.122,-0.528,0.640,6.67,-1.30,2,0
209902,-0.022,-0.141,1.459,-19.561,48.026,-25.111,0.5658,0.0988,0.2472,-0.7803,-17.705,25.720,67.821,-16.276,18.475,2.639,0.004,-0.031,0.012,8.661,-22.978,2.639,0.311,-0.630,0.717,6.63,-1.35,2,0
209920,-0.026,-0.140,1.475,-20.070,44.953,-24.810,0.5639,0.0998,0.2497,-0.7808,-17.968,25.938,67.502,-16.276,18.475,2.639,0.004,-0.031,0.012,7.740,-25.490,2.639,0.364,-0.658,0.739,6.61,-1.35,2,0
210202,0.040,-0.127,0.879,-1.948,33.199,-36.398,0.5032,0.0982,0.1872,-0.8379,-13.273,20.671,59.546,-12.449,17.507,2.639,0.004,-0.031,0.012,4.359,-13.041,2.639,0.311,-0.362,0.970,6.41,-0.84,2,0
210242,0.028,-0.115,1.016,-3.415,39.040,-33.224,0.4900,0.1038,0.1947,-0.8433,-14.099,21.463,57.638,-5.674,17.199,2.111,0.004,-0.031,0.012,41.272,-14.122,2.111,0.550,-0.582,0.902,6.39,-0.42,2,0
210258,0.018,-0.109,1.099,3.572,32.780,-31.268,0.4842,0.1068,0.1971,-0.8458,-14.348,21.805,56.801,-5.674,17.199,2.111,0.004,-0.031,0.012,45.598,-15.949,2.111,0.632,-0.659,0.734,6.38,-0.40,2,0
210271,0.017,-0.108,1.150,11.939,26.812,-30.296,0.4808,0.1084,0.1974,-0.8474,-14.376,21.938,56.339,-5.674,17.199,2.111,0.004,-0.031,0.012,45.815,-16.310,2.111,0.631,-0.497,0.659,6.38,-0.40,2,0
210292,0.005,-0.105,1.258,26.695,13.212,-27.417,0.4751,0.1111,0.1949,-0.8509,-14.117,21.980,55.597,-6.334,17.199,2.111,0.004,-0.031,0.012,44.683,-16.710,2.111,0.306,-0.199,0.462,6.37,-0.38,2,0
210330,0.011,-0.103,1.356,52.293,-14.638,-26.084,0.4668,0.1130,0.1822,-0.8580,-12.853,21.353,54.667,-9.062,18.783,2.111,0.004,-0.031,0.012,20.877,-9.375,2.111,-0.092,0.167,0.341,6.32,-1.44,2,0
210343,0.015,-0.103,1.352,56.730,-20.894,-26.189,0.4638,0.1128,0.1748,-0.8612,-12.140,20.886,54.366,-9.765,19.487,2.111,0.004,-0.031,0.012,18.341,-8.307,2.111,-0.212,0.277,0.407,6.30,-1.37,2,0
210366,0.022,-0.104,1.294,60.945,-26.655,-27.923,0.4590,0.1117,0.1621,-0.8663,-10.945,20.024,53.894,-9.238,18.827,2.111,0.004,-0.031,0.012,8.996,-4.179,2.111,-0.381,0.432,0.533,6.27,-1.28,2,0
210382,0.026,-0.104,1.265,61.735,-27.082,-28.231,0.4558,0.1108,0.1536,-0.8697,-10.152,19.433,53.570,-9.238,18.783,2.111,0.004,-0.031,0.012,5.404,-2.556,2.111,-0.452,0.497,0.587,6.26,-1.04,2,0
210399,0.033,-0.100,1.153,57.511,-21.738,-29.431,0.4504,0.1094,0.1407,-0.8748,-8.953,18.555,53.021,-9.282,18.123,2.111,0.004,-0.031,0.012,-0.080,-1.987,2.111,-0.552,0.582,0.662,6.24,-0.99,2,0
210413,0.035,-0.099,1.130,55.137,-19.656,-30.154,0.4484,0.1091,0.1364,-0.8766,-8.562,18.274,52.804,-9.282,18.123,2.111,0.004,-0.031,0.012,-2.800,-1.006,2.111,-0.595,0.451,0.695,6.23,-0.99,2,0
210450,0.042,-0.095,1.001,34.986,-1.001,-32.058,0.4392,0.1083,0.1226,-0.8833,-7.314,17.403,51.755,-9.370,18.783,2.111,0.004,-0.031,0.012,-10.047,2.454,2.111,-0.698,0.029,0.783,6.21,-0.68,2,0
210959,-0.019,-0.069,1.298,-12.639,-9.759,-11.817,0.3453,0.1156,0.1372,-0.9212,-10.478,17.919,39.435,-12.317,15.308,2.111,0.004,-0.031,0.012,-10.225,-9.541,2.111,0.356,0.128,-0.257,5.58,-0.98,2,0
211233,-0.007,-0.091,1.140,-39.436,8.220,-28.956,0.3013,0.0997,0.1163,-0.9411,-9.457,14.937,34.261,-17.595,14.692,2.111,0.004,-0.031,0.012,-42.727,-0.688,2.111,0.193,-0.081,0.881,5.39,-1.60,2,0
211257,-0.006,-0.085,1.184,-44.137,-9.519,-25.964,0.2960,0.0934,0.1249,-0.9424,-10.723,14.475,33.515,-14.164,11.305,2.111,0.004,-0.031,0.012,-19.705,-9.396,2.111,0.354,0.135,0.775,5.36,-1.52,2,0
211286,-0.003,-0.081,1.161,-39.171,-19.681,-21.698,0.2918,0.0833,0.1328,-0.9435,-11.993,13.578,32.934,-13.504,8.974,2.111,0.004,-0.031,0.012,-9.113,-16.535,2.111,0.523,0.266,0.380,5.32,-1.34,2,0
211310,0.001,-0.080,1.101,-27.864,-20.190,-19.138,0.2889,0.0752,0.1368,-0.9445,-12.738,12.771,32.583,-17.331,9.589,2.111,0.004,-0.031,0.012,-24.911,-10.872,2.111,0.249,0.458,0.052,5.28,-1.28,2,0
211338,0.006,-0.086,1.008,-4.712,-9.220,-15.568,0.2855,0.0678,0.1378,-0.9460,-13.115,11.942,32.209,-19.311,10.733,2.111,0.004,-0.031,0.012,-33.936,-4.072,2.111,-0.077,0.325,-0.223,5.28,-0.03,2,0
211359,0.008,-0.090,0.963,11.382,0.719,-14.985,0.2830,0.0657,0.1357,-0.9472,-12.967,11.614,31.949,-19.839,10.777,2.111,0.004,-0.031,0.012,-38.023,-2.778,2.111,-0.231,0.105,-0.263,5.27,-0.03,2,0
211389,0.009,-0.094,0.940,29.297,19.109,-13.564,0.2788,0.0675,0.1292,-0.9492,-12.234,11.549,31.497,-20.411,10.953,2.111,0.004,-0.031,0.012,-40.834,-2.261,2.111,-0.409,-0.151,-0.257,5.26,-0.15,2,0
211418,0.005,-0.096,0.976,44.242,32.924,-13.914,0.2728,0.0759,0.1185,-0.9517,-10.851,12.074,30.834,-20.543,10.865,2.111,0.004,-0.031,0.012,-52.585,-4.081,2.111,-0.589,-0.410,0.007,5.22,-1.15,2,0
211429,0.006,-0.097,0.985,44.842,33.025,-14.327,0.2720,0.0771,0.1171,-0.9520,-10.672,12.152,30.755,-20.543,10.733,2.111,0.004,-0.031,0.012,-52.585,-4.081,2.111,-0.605,-0.433,0.046,5.22,-1.15,2,0
211450,-0.002,-0.096,1.032,34.978,30.684,-17.029,0.2671,0.0842,0.1089,-0.9538,-9.603,12.636,30.225,-20.630,10.733,2.111,0.004,-0.031,0.012,-59.565,-6.386,2.111,-0.696,-0.564,0.266,5.19,-1.09,2,0
211477,-0.007,-0.091,1.097,4.373,19.523,-21.500,0.2615,0.0886,0.1050,-0.9554,-9.110,12.954,29.574,-20.543,10.513,2.111,0.004,-0.031,0.012,-62.511,-8.187,2.111,-0.566,-0.343,0.447,5.14,-1.92,2,0
211962,-0.059,-0.103,1.722,-34.789,60.739,-25.954,0.1642,0.1286,0.1760,-0.9620,-18.130,17.776,16.508,-17.947,31.012,2.111,0.004,-0.031,0.012,-0.785,45.402,2.111,0.684,-0.688,0.575,4.33,-3.00,2,0
212002,-0.082,-0.096,1.847,-13.624,35.148,-19.067,0.1529,0.1422,0.1876,-0.9598,-19.596,19.286,14.742,-10.557,29.604,2.111,0.004,-0.031,0.012,45.473,40.665,2.111,0.805,-0.097,0.054,4.20,-2.50,2,0
212198,-0.080,-0.097,1.856,-3.379,23.936,-18.387,0.1502,0.1442,0.1884,-0.9598,-19.730,19.475,14.374,-11.041,26.217,2.111,0.004,-0.031,0.012,46.403,35.442,2.111,0.831,0.048,-0.063,4.17,-2.50,2,0
212227,0.027,-0.102,1.220,60.791,41.888,-37.874,0.0905,0.1460,0.0951,-0.9805,-9.672,17.671,9.038,-10.821,21.862,2.111,0.004,-0.031,0.012,-4.330,23.543,2.111,-0.740,-0.145,0.835,3.92,-1.71,2,0
212250,0.016,-0.080,1.337,37.144,57.642,-38.601,0.0739,0.1596,0.0815,-0.9810,-8.287,18.981,7.230,-8.666,13.416,2.111,0.004,-0.031,0.012,-9.925,-14.737,2.111,-0.668,-0.417,0.888,3.87,-1.27,2,0
212271,0.004,-0.071,1.419,23.670,58.051,-38.420,0.0656,0.1677,0.0777,-0.9806,-7.962,19.818,6.264,-7.654,13.680,2.111,0.004,-0.031,0.012,2.014,-20.702,2.111,-0.384,-0.524,0.908,3.85,-1.20,2,0
212298,-0.013,-0.057,1.516,5.677,52.174,-36.395,0.0573,0.1758,0.0763,-0.9798,-7.946,20.687,5.243,-8.182,14.252,2.111,0.004,-0.031,0.012,-1.157,-22.713,2.111,-0.043,-0.641,0.903,3.81,-1.24,2,0
212330,-0.031,-0.041,1.642,-24.592,33.218,-30.857,0.0472,0.1845,0.0812,-0.9783,-8.753,21.630,3.845,-8.314,16.100,2.287,0.004,-0.031,0.012,1.954,-19.177,2.287,0.245,-0.257,0.549,3.73,-2.53,2,0
212358,-0.034,-0.034,1.677,-35.259,8.446,-24.723,0.0408,0.1863,0.0905,-0.9775,-10.026,21.814,2.846,-10.469,17.551,2.639,0.004,-0.031,0.012,-1.112,-15.102,2.639,0.431,0.053,0.168,3.67,-2.15,2,0
212373,-0.035,-0.031,1.664,-35.134,-1.356,-21.500,0.0389,0.1850,0.0947,-0.9774,-10.581,21.658,2.526,-10.557,17.551,2.639,0.004,-0.031,0.012,-1.059,-14.700,2.639,0.506,0.178,0.014,3.66,-2.15,2,0
212389,-0.029,-0.035,1.624,-32.614,-10.601,-18.774,0.0372,0.1824,0.0992,-0.9775,-11.163,21.341,2.244,-11.041,17.551,2.639,0.004,-0.031,0.012,0.151,-13.551,2.639,0.580,0.301,-0.137,3.65,-0.84,2,0
212407,-0.020,-0.037,1.550,-23.262,-15.888,-15.925,0.0356,0.1783,0.1031,-0.9779,-11.671,20.863,2.010,-11.129,17.683,2.639,0.004,-0.031,0.012,2.617,-11.296,2.639,0.427,0.417,-0.281,3.63,-0.80,2,0
212442,-0.007,-0.048,1.390,3.464,-12.548,-10.836,0.0329,0.1710,0.1049,-0.9791,-11.929,19.986,1.741,-11.613,18.255,2.639,0.004,-0.031,0.012,1.727,-6.205,2.639,0.033,0.578,-0.479,3.63,0.21,2,0
212469,0.010,-0.059,1.242,28.116,3.578,-8.756,0.0298,0.1673,0.0995,-0.9804,-11.326,19.513,1.525,-13.460,19.487,2.639,0.004,-0.031,0.012,-10.157,-0.213,2.639,-0.237,0.283,-0.610,3.64,0.20,2,0
212492,0.017,-0.066,1.166,34.805,18.646,-9.212,0.0268,0.1677,0.0930,-0.9811,-10.600,19.518,1.305,-13.856,20.103,2.639,0.004,-0.031,0.012,-16.058,0.000,2.639,-0.389,0.028,-0.518,3.64,0.16,2,0
212510,0.023,-0.069,1.134,32.217,29.469,-11.245,0.0240,0.1700,0.0876,-0.9812,-10.021,19.744,1.052,-14.340,20.806,2.639,0.004,-0.031,0.012,-22.000,3.936,2.639,-0.480,-0.126,-0.302,3.64,-0.05,2,0
212798,0.002,-0.058,1.241,0.812,40.269,-14.953,-0.0265,0.1938,0.1315,-0.9718,-16.631,21.697,353.673,-17.595,17.199,2.111,0.004,-0.031,0.012,-2.101,-15.059,2.111,0.098,-0.065,-0.015,3.49,-0.44,2,0
212823,-0.007,-0.064,1.297,29.452,55.759,-10.043,-0.0334,0.2055,0.1252,-0.9700,-16.187,22.974,352.751,-19.355,15.220,2.111,0.004,-0.031,0.012,-12.540,-26.064,2.111,-0.237,-0.350,-0.315,3.48,-0.14,2,0
212851,-0.014,-0.068,1.350,33.921,53.642,-8.560,-0.0389,0.2159,0.1165,-0.9687,-15.406,24.152,352.087,-19.839,15.308,2.287,0.004,-0.031,0.012,-22.418,-30.006,2.111,-0.425,-0.510,-0.462,3.48,-0.13,2,0
212869,-0.022,-0.072,1.377,39.068,47.276,-8.869,-0.0424,0.2217,0.1103,-0.9679,-14.835,24.826,351.695,-20.411,15.308,2.111,0.004,-0.031,0.012,-28.578,-32.717,2.111,-0.511,-0.583,-0.373,3.48,-0.13,2,0
212887,-0.029,-0.073,1.406,44.385,39.337,-9.384,-0.0457,0.2258,0.1041,-0.9675,-14.223,25.309,351.385,-20.411,15.220,2.287,0.004,-0.031,0.012,-32.462,-35.184,2.287,-0.600,-0.503,-0.229,3.49,0.01,2,0
212910,-0.046,-0.074,1.488,32.186,24.289,-13.813,-0.0509,0.2300,0.0953,-0.9672,-13.339,25.803,350.902,-20.543,14.604,2.287,0.004,-0.031,0.012,-36.927,-38.777,2.287,-0.686,-0.180,0.035,3.52,1.17,2,0
212937,-0.054,-0.070,1.535,26.317,13.922,-15.668,-0.0534,0.2306,0.0923,-0.9672,-13.043,25.863,350.677,-20.543,14.516,2.639,0.004,-0.031,0.012,-38.636,-39.200,2.287,-0.722,-0.045,0.146,3.53,1.11,2,0
212948,-0.062,-0.070,1.629,6.502,-3.905,-20.840,-0.0584,0.2287,0.0889,-0.9677,-12.733,25.608,350.191,-20.411,13.812,7.038,0.004,-0.031,0.012,-40.371,-41.353,7.038,-0.559,0.196,0.343,3.54,0.97,2,0
212973,-0.063,-0.063,1.676,-13.950,-14.335,-24.283,-0.0624,0.2247,0.0902,-0.9682,-12.936,25.074,349.742,-21.466,13.768,14.076,0.004,-0.031,0.012,-45.511,-39.974,14.076,-0.249,0.357,0.474,3.55,0.11,2,0
212990,-0.058,-0.060,1.681,-25.867,-16.464,-25.668,-0.0643,0.2220,0.0927,-0.9685,-13.244,24.711,349.493,-21.994,13.768,14.780,0.004,-0.031,0.012,-45.874,-37.905,14.780,-0.062,0.453,0.552,3.55,0.10,2,0
213019,-0.049,-0.059,1.563,-60.966,-11.222,-27.441,-0.0689,0.2145,0.1074,-0.9684,-15.027,23.614,348.696,-22.170,14.472,12.669,0.004,-0.031,0.012,-38.883,-32.552,12.669,0.231,0.527,0.676,3.60,1.83,2,0
213559,0.014,-0.080,0.885,37.906,-26.856,-31.338,-0.1901,0.1847,0.0818,-0.9608,-13.905,18.889,335.290,26.173,-1.408,1.760,0.004,-0.031,0.012,90.000,-60.000,1.760,0.776,0.211,0.947,4.46,0.90,2,0
213798,0.005,-0.021,0.984,37.685,-5.292,-22.751,-0.2626,0.1220,-0.0197,-0.9569,-1.556,14.119,329.116,22.126,-1.408,2.111,0.004,-0.031,0.012,90.000,-53.638,2.111,0.731,-0.283,0.771,4.73,0.25,2,0
213818,0.005,-0.017,1.005,44.152,-15.770,-20.510,-0.2658,0.1181,-0.0235,-0.9565,-1.051,13.798,328.811,21.422,-1.408,2.111,0.004,-0.031,0.012,90.000,-53.023,2.111,0.716,-0.114,0.588,4.73,0.25,2,0
213840,0.007,-0.012,1.006,53.853,-27.091,-17.624,-0.2693,0.1119,-0.0286,-0.9561,-0.330,13.255,328.502,20.015,-1.408,2.111,0.004,-0.031,0.012,90.000,-51.116,2.111,0.481,0.052,0.355,4.74,0.24,2,0
213871,0.026,-0.013,0.908,59.490,-42.952,-13.651,-0.2774,0.0894,-0.0435,-0.9556,1.955,11.244,327.817,19.883,-1.232,1.760,0.004,-0.031,0.012,90.000,-44.227,1.760,0.139,0.380,-0.108,4.72,-0.36,2,0
213891,0.029,-0.014,0.826,58.718,-43.493,-11.274,-0.2807,0.0777,-0.0499,-0.9553,3.018,10.165,327.516,18.783,0.572,1.760,0.004,-0.031,0.012,90.000,-36.349,1.760,0.296,0.493,-0.256,4.72,-0.34,2,0
213923,0.034,-0.021,0.739,66.441,-35.608,-9.527,-0.2840,0.0654,-0.0577,-0.9549,4.246,9.073,327.212,15.924,2.551,2.111,0.004,-0.031,0.012,76.651,-28.381,2.111,0.138,0.594,-0.384,4.73,0.52,2,0
